{"type":"FeatureCollection","features":[{"type":"Feature","properties":{"Landmark":"Golden Sheaf Bakery","Address":"2071 Addison Street","Architect + Date":"Clinton Day (1905)","Link":"https://berkeleyheritage.com/berkeley_landmarks/landmarks1-100.html","Designated":"17 Oct 1977","Notes":"#78000644, National Register of Historic Places (1978)"},"geometry":{"coordinates":[-122.26905687557318,37.87124108834574],"type":"Point"}},{"type":"Feature","properties":{"Landmark":"Berkeley Public Library","Address":"2090 Kittredge Street","Architect + Date":"James W. Plachek (1930)","Link":"http://berkeleyheritage.com/berkeley_landmarks/images/public_library.jpg","Designated":"19 Apr 1982","Notes":"#82002156, National Register of Historic Places (1982)"},"geometry":{"coordinates":[-122.26852454779741,37.86818932312616],"type":"Point"}},{"type":"Feature","properties":{"Landmark":"Cloyne Court Hotel","Address":"2600 Ridge Road","Architect + Date":"John Galen Howard (1904)","Link":"http://berkeleyheritage.com/berkeley_landmarks/cloyne_court.html","Designated":"15 Nov 1982","Notes":"\t#92001718, National Register of Historic Places (1992)"},"geometry":{"coordinates":[-122.25795430678363,37.876161969378884],"type":"Point"}},{"type":"Feature","properties":{"Landmark":"Veterans' Memorial Building","Address":"1931 Center Street","Architect + Date":"Henry H. Meyers (1928)","Link":"http://berkeleyheritage.com/berkeley_landmarks/images/Veterans-Memorial_Bldg2.jpg","Designated":"15 Apr 1985","Notes":"Civic Center Historic District; #98000963, National Register of Historic Places (1998)"},"geometry":{"coordinates":[-122.27184447662731,37.870057925940486],"type":"Point"}},{"type":"Feature","properties":{"Landmark":"Berkeley Municipal Incinerator","Address":"1120 Second Street","Architect + Date":"Griscom-Russell Co. (1913)","Link":"http://berkeleyheritage.com/berkeley_landmarks/incinerator.html","Designated":"15 Jul 1985","Notes":""},"geometry":{"coordinates":[-122.30684801878573,37.88123816857659],"type":"Point"}},{"type":"Feature","properties":{"Landmark":"Sutliff Rock (Picnic Rock)","Address":"550 Santa Rosa Avenue","Architect + Date":"","Link":"http://berkeleyheritage.com/berkeley_landmarks/images/Sutliff_Rock.jpg","Designated":"21 May 1990","Notes":"Site of Merit"},"geometry":{"coordinates":[-122.28270881520052,37.89837100620524],"type":"Point"}},{"type":"Feature","properties":{"Landmark":"West Berkeley Macaroni Factory","Address":"2215 Fifth Street","Architect + Date":"Simone Marengo, builder (1906-07)","Link":"http://berkeleyheritage.com/berkeley_landmarks/marengo.html","Designated":"28 Jan 1991","Notes":"Structure of Merit CA State Historic Resources Inventory"},"geometry":{"coordinates":[-122.29740042673737,37.86452790183857],"type":"Point"}},{"type":"Feature","properties":{"Landmark":"University Art Museum","Address":"2626 Bancroft Way","Architect + Date":"Mario J. Ciampi, Richard L. Jorasch, Ronald E. Wagner & (initially) Paul W. Reiter (1967-1970)","Link":"http://berkeleyheritage.com/berkeley_landmarks/2012_landmarks.html","Designated":"2 Feb 2012","Notes":""},"geometry":{"coordinates":[-122.25586892833073,37.86867469624504],"type":"Point"}},{"type":"Feature","properties":{"Landmark":"UC Theater","Address":"\t2036 University Avenue","Architect + Date":"James W. Plachek (1916)","Link":"http://berkeleyheritage.com/berkeley_landmarks/2002_landmarks.html","Designated":"6 May 2002","Notes":"\tCA State Historic Resources Inventory"},"geometry":{"coordinates":[-122.2698473625814,37.871730137230784],"type":"Point"}},{"type":"Feature","properties":{"Landmark":"John Muir School","Address":"\t2955 Claremont Avenue","Architect + Date":"James W. Plachek (1915)","Link":"http://berkeleyheritage.com/berkeley_landmarks/images/John_Muir_School3.jpg","Designated":"18 Jul1983","Notes":"CA State Historic Resources Inventory"},"geometry":{"coordinates":[-122.24506656541641,37.85732493874518],"type":"Point"}}]}